[
  {
    "Location": "Abreeza",
    "Lat": 7.0910885,
    "Lng": 125.6112563
  },
  {
    "Location": "Aldevinco Shopping Center",
    "Lat": 7.0714308,
    "Lng": 125.6121108
  },
  {
    "Location": "Bankerohan Public Market",
    "Lat": 7.069088,
    "Lng": 125.601686
  },
  {
    "Location": "BEMWA Farm",
    "Lat": 7.4828417,
    "Lng": 125.2589132
  },
  {
    "Location": "BlueJaz Water Park",
    "Lat": 7.10423,
    "Lng": 125.663909
  },
  {
    "Location": "Butterfly House Inc",
    "Lat": 7.095787,
    "Lng": 125.5956726
  },
  {
    "Location": "Cape of San Agustin",
    "Lat": 6.2698977,
    "Lng": 126.1929794
  },
  {
    "Location": "Christina Orchids Garden Resort",
    "Lat": 7.05589,
    "Lng": 125.575007
  },
  {
    "Location": "Coral Garden Marine Park",
    "Lat": 6.9383418,
    "Lng": 125.6748653
  },
  {
    "Location": "Crocodile Park",
    "Lat": 7.0975896,
    "Lng": 125.5989218
  },
  {
    "Location": "Davao Museum of History and Ethnography",
    "Lat": 7.1052235,
    "Lng": 125.6473625
  },
  {
    "Location": "D'Bone Collector",
    "Lat": 7.0610623,
    "Lng": 125.6124776
  },
  {
    "Location": "Eden Nature Park & Resort",
    "Lat": 7.0292029,
    "Lng": 125.3992685
  },
  {
    "Location": "Felcris Centrale",
    "Lat": 7.0598032,
    "Lng": 125.6087558
  },
  {
    "Location": "GAP Farm",
    "Lat": 7.0952623,
    "Lng": 125.5733093
  },
  {
    "Location": "Giant Clam Sanctuary",
    "Lat": 7.013849,
    "Lng": 125.7205224
  },
  {
    "Location": "GMALL The Peak",
    "Lat": 7.077753,
    "Lng": 125.614360
  },
  {
    "Location": "GMALL",
    "Lat": 7.077944,
    "Lng": 125.613362
  },
  {
    "Location": "Golden Bay Beach Resort and Spa",
    "Lat": 7.070549,
    "Lng": 125.6728435
  },
  {
    "Location": "Gumamela Caverock Farm Resort",
    "Lat": 7.1506382,
    "Lng": 125.5385842
  },
  {
    "Location": "Hagimit Falls",
    "Lat": 7.0669958,
    "Lng": 125.7253312
  },
  {
    "Location": "Japanese Tunnel",
    "Lat": 7.0659312,
    "Lng": 125.5631999
  },
  {
    "Location": "Japanese Cave House",
    "Lat": 7.1023805,
    "Lng": 125.6636582
  },
  {
    "Location": "Kaputian Beach",
    "Lat": 6.9555615,
    "Lng": 125.7625241
  },
  {
    "Location": "Lolengs Mountain Spring Resort",
    "Lat": 7.0196737,
    "Lng": 125.4172611
  },
  {
    "Location": "Lon Hua Temple",
    "Lat": 7.0954141,
    "Lng": 125.6205694
  },
  {
    "Location": "Magsaysay Local Fruit Stands",
    "Lat": 7.074315,
    "Lng": 125.625337
  },
  {
    "Location": "Malagos Garden",
    "Lat": 7.188993,
    "Lng": 125.426065
  },
  {
    "Location": "Matina Town Square",
    "Lat": 7.0639296,
    "Lng": 125.5962498
  },
  {
    "Location": "Maxima Beach House",
    "Lat": 7.0541413,
    "Lng": 125.7173681
  },
  {
    "Location": "Monfort Bat Sanctuary",
    "Lat": 7.1648393,
    "Lng": 125.6922184
  },
  {
    "Location": "Mount Apo",
    "Lat": 6.9875,
    "Lng": 125.2710
  },
  {
    "Location": "Mt Galintan Sleeping Dinosaur",
    "Lat": 6.887301,
    "Lng": 126.1833679
  },
  {
    "Location": "Mt Puting Bato",
    "Lat": 7.0664,
    "Lng": 125.7680
  },
  {
    "Location": "Museo Dabawenyo",
    "Lat": 7.0630,
    "Lng": 125.6093
  },
  {
    "Location": "Osmena Park",
    "Lat": 7.0631276,
    "Lng": 125.6092098
  },
  {
    "Location": "Panas Falls",
    "Lat": 7.5943676,
    "Lng": 125.8632668
  },
  {
    "Location": "Paradise Island Park Beach Resort",
    "Lat": 7.1023805,
    "Lng": 125.6636582
  },
  {
    "Location": "Peoples Park",
    "Lat": 7.071021,
    "Lng": 125.607844
  },
  {
    "Location": "Philippine Eagle Center",
    "Lat": 7.18511,
    "Lng": 125.415519
  },
  {
    "Location": "Redemptorist Church",
    "Lat": 7.0921494,
    "Lng": 125.6097552
  },
  {
    "Location": "Roxas Avenue Night Market",
    "Lat": 7.069963,
    "Lng": 125.614062
  },
  {
    "Location": "Samal Watersports Center",
    "Lat": 7.108739,
    "Lng": 125.66823
  },
  {
    "Location": "San Pedro Cathedral",
    "Lat": 7.064696,
    "Lng": 125.6094877
  },
  {
    "Location": "Seawall",
    "Lat": 7.0411754,
    "Lng": 125.58433594
  },
  {
    "Location": "Shrine of the Holy Infant Jesus of Prague",
    "Lat": 7.0560471,
    "Lng": 125.5772738
  },
  {
    "Location": "SM City Davao",
    "Lat": 7.049861,
    "Lng": 125.588019
  },
  {
    "Location": "SM Lanang Premiere",
    "Lat": 7.0988646,
    "Lng": 125.630959
  },
  {
    "Location": "Sta Ana Shrine",
    "Lat": 7.0768636,
    "Lng": 125.6171255
  },
  {
    "Location": "Sul Orchids Palma Gil",
    "Lat": 7.0699198,
    "Lng": 125.6085763
  },
  {
    "Location": "Tagbaobo Falls",
    "Lat": 7.0045068,
    "Lng": 125.7679821
  },
  {
    "Location": "Talomo Beach Resort",
    "Lat": 7.04538563,
    "Lng": 125.54755254
  },
  {
    "Location": "Tamayong Prayer Mountain",
    "Lat": 7.1332144,
    "Lng": 125.3816199
  },
  {
    "Location": "Tribu K Mindanawan Cultural Village",
    "Lat": 7.0981972,
    "Lng": 125.6000087
  },
  {
    "Location": "Vanishing Island",
    "Lat": 7.1591083,
    "Lng": 125.6821453
  },
  {
    "Location": "Zip City",
    "Lat": 7.0911037,
    "Lng": 125.5686553
  },
  {
    "Location": "Zorb Park",
    "Lat": 7.0975896,
    "Lng": 125.5989218
  },
  {
    "Location": "Bali Bali Beach Resort",
    "Lat": 7.064274,
    "Lng": 125.683751
  },
  {
    "Location": "Camp Holiday Resort and Recreational Area",
    "Lat": 7.121203,
    "Lng": 125.674302
  },
  {
    "Location": "Chemas by the Sea Resort",
    "Lat": 7.094684,
    "Lng": 125.664162
  },
  {
    "Location": "Crown Regency Residences Davao Hotel",
    "Lat": 10.324284,
    "Lng": 123.882821
  },
  {
    "Location": "Grand Men Seng Hotel",
    "Lat": 7.064615,
    "Lng": 125.606560
  },
  {
    "Location": "Grand Regal Hotel",
    "Lat": 7.103421,
    "Lng": 125.641000
  },
  {
    "Location": "Hof Gorei Beach Resort",
    "Lat": 6.993776,
    "Lng": 125.727410
  },
  {
    "Location": "Paradise Island Park & Beach Resort",
    "Lat": 7.102380,
    "Lng": 125.663658
  },
  {
    "Location": "Park Inn by Radisson",
    "Lat": 7.097333,
    "Lng": 125.630486
  },
  {
    "Location": "Punta Del Sol Beach Resort",
    "Lat": 7.064192,
    "Lng": 125.679227
  },
  {
    "Location": "Red Knight Gardens Apartelle",
    "Lat": 7.105705,
    "Lng": 125.637090
  },
  {
    "Location": "Red Planet",
    "Lat": 7.098659,
    "Lng": 125.623058
  },
  {
    "Location": "Seda Abreeza Davao",
    "Lat": 7.089591,
    "Lng": 125.610653
  },
  {
    "Location": "The Apo View Hotel",
    "Lat": 7.069400,
    "Lng": 125.607512
  },
  {
    "Location": "The Marco Polo Hotel",
    "Lat": 7.072146,
    "Lng": 125.611495
  },
  {
    "Location": "The Pinnacle Hotel and Suites",
    "Lat": 7.076165,
    "Lng": 125.615234
  },
  {
    "Location": "The Royal Mandaya Hotel",
    "Lat": 7.069293,
    "Long": 125.610564
  },
  {
    "Location": "The Strand Hotel and Suites",
    "Lat": 7.083506,
    "Lng": 125.608475
  },
  {
    "Location": "Urban Living Zen Hotel Inc.",
    "Lat": 7.091534,
    "Lng": 125.606042
  },
  {
    "Location": "Waterfront Insular Hotel",
    "Lat": 7.106422,
    "Lng": 125.650311
  }
]